[{"id":"Adeje_Magma_Yoga","title":"Magma Yoga","location":"Adeje, Santa Cruz de Tenerife, None","city":"Adeje","state":"Santa Cruz de Tenerife","country":"None","address":"","tags":["Adeje","Santa Cruz de Tenerife","atmosphere","community","Adeje"],"summary":"Magma Yoga in Adeje, Santa Cruz de Tenerife offers a welcoming and supportive environment for yoga practitioners.","gm_reviews_count":6,"gm_totalScore":5},{"id":"Buenos_Aires_Bona_Yoga","title":"Bona Yoga","location":"Buenos_Aires, Buenos Aires, None","city":"Buenos_Aires","state":"Buenos Aires","country":"None","address":"","tags":["Buenos Aires","Palermo","Vinyasa Yoga","Transformative Experience","Buenos Aires"],"summary":"A magical yoga studio located in Buenos Aires, known for its welcoming environment and professional instructors.","gm_reviews_count":29,"gm_totalScore":4.9},{"id":"Buenos_Aires_Yoga_Aldea_Shakti","title":"Yoga Aldea Shakti","location":"Buenos_Aires, Buenos Aires, None","city":"Buenos_Aires","state":"Buenos Aires","country":"None","address":"","tags":["Buenos Aires","transformative","beginner-friendly","Buenos Aires"],"summary":"Aldea Shakti is a yoga studio located in Buenos Aires.","gm_reviews_count":14,"gm_totalScore":5},{"id":"Buenos_Aires_Yoga_Proyectomadre","title":"Yoga Proyectomadre","location":"Buenos_Aires, Buenos Aires, None","city":"Buenos_Aires","state":"Buenos Aires","country":"None","address":"","tags":["Buenos Aires","Yoga","Wellness","Relaxation","Buenos Aires"],"summary":"Yoga Proyectomadre is a dedicated yoga studio located in Buenos Aires.","gm_reviews_count":25,"gm_totalScore":5},{"id":"Buenos_Aires_Yoga_Teacher_Yoga_Classes","title":"Yoga Teacher  Yoga Classes","location":"Buenos_Aires, Buenos Aires, None","city":"Buenos_Aires","state":"Buenos Aires","country":"None","address":"","tags":["Buenos Aires","mantra yoga","breathwork","atmosphere","Buenos Aires"],"summary":"A yoga studio located in Buenos Aires known for its personalized instruction and excellent atmosphere.","gm_reviews_count":19,"gm_totalScore":4.9},{"id":"Buenos_Aires_Yoga_Vida_Vital","title":"Yoga Vida Vital","location":"Buenos_Aires, Buenos Aires, None","city":"Buenos_Aires","state":"Buenos Aires","country":"None","address":"","tags":["Buenos Aires","personalized instruction","relaxation","community atmosphere","Buenos Aires"],"summary":"A warm yoga studio in Buenos Aires, offering personalized classes with a dedicated instructor.","gm_reviews_count":98,"gm_totalScore":5},{"id":"Central_Yoga_Bambam","title":"Yoga Bambam","location":"Central, None, None","city":"Central","state":"None","country":"None","address":"","tags":["Central None","atmosphere","Central"],"summary":"This yoga studio in Central None offers a supportive environment for yoga enthusiasts of all levels.","gm_reviews_count":21,"gm_totalScore":3.9},{"id":"Chennai_Better_Life_Yoga","title":"Better Life Yoga","location":"Chennai, Tamil Nadu, None","city":"Chennai","state":"Tamil Nadu","country":"None","address":"","tags":["Chennai","Kolathur","Hatha Yoga","Therapeutic Yoga","peaceful","supportive atmosphere","Chennai"],"summary":"Better Life Yoga is an excellent yoga training centre located in Chennai, Tamil Nadu.","gm_reviews_count":45,"gm_totalScore":5},{"id":"Chennai_Siva_Yoga_Seelar_Yoga_Center","title":"Siva Yoga Seelar Yoga Center","location":"Chennai, Tamil Nadu, None","city":"Chennai","state":"Tamil Nadu","country":"None","address":"","tags":["Medavakkam","Chennai","Hatha Yoga","Therapeutic Yoga","individualized instruction","spiritual atmosphere","Chennai"],"summary":"A yoga center in Medavakkam, Chennai offering personalized sessions for transformative health benefits.","gm_reviews_count":134,"gm_totalScore":4.9},{"id":"Chennai_Sri_Raja_Yoga_Wellness_Centre_ஸர_ரஜ_யக","title":"Sri Raja Yoga Wellness Centre ஸர ரஜ யக","location":"Chennai, Tamil Nadu, None","city":"Chennai","state":"Tamil Nadu","country":"None","address":"","tags":["Chennai","Adambakkam","Hatha Yoga","Vinyasa Yoga","Meditation","holistic approach","flexible scheduling","Chennai"],"summary":"A highly recommended yoga studio located in Chennai, offering courses for all age groups.","gm_reviews_count":367,"gm_totalScore":5},{"id":"Denpasar_City_Umah_Shakti_Yoga_Bali","title":"Umah Shakti Yoga Bali","location":"Denpasar_City, Bali, None","city":"Denpasar_City","state":"Bali","country":"None","address":"","tags":["Denpasar","Bali","Ashtanga","Gentle Flow","Anti-Gravity","community-oriented","affordable","Denpasar City"],"summary":"Umah Shakti Yoga is a welcoming studio located in Denpasar City, Bali.","gm_reviews_count":84,"gm_totalScore":4.9},{"id":"Florence_Maya_Yoga_Studio","title":"Maya Yoga Studio","location":"Florence, Metropolitan City of Florence, None","city":"Florence","state":"Metropolitan City of Florence","country":"None","address":"","tags":["Florence","Metropolitan City of Florence","Hatha","Vinyasa","atmosphere","community","Florence"],"summary":"Maya Yoga Studio is a serene yoga space located in Florence.","gm_reviews_count":33,"gm_totalScore":4.9},{"id":"Gianyar_Regency_House_Of_Om_Amertham_Yoga_Teacher_Training_Bali","title":"House Of Om Amertham  Yoga Teacher Training Bali","location":"Gianyar_Regency, Bali, None","city":"Gianyar_Regency","state":"Bali","country":"None","address":"","tags":["Bali","Gianyar Regency","Hatha","Vinyasa","Ashtanga","community","transformative","Gianyar Regency"],"summary":"House of Om is located in Bali, offering a transformational yoga teacher training experience.","gm_reviews_count":903,"gm_totalScore":4.8},{"id":"Hudson_Mūv_Yoga_Studio","title":"Mūv Yoga Studio","location":"Hudson, Quebec, None","city":"Hudson","state":"Quebec","country":"None","address":"","tags":["Hudson","downtown","yoga","pilates","Zumba","community","cozy","Hudson"],"summary":"A cozy and inviting yoga studio located in Hudson, Quebec.","gm_reviews_count":48,"gm_totalScore":4.9},{"id":"Karlín_Karlin_Yoga","title":"Karlin Yoga","location":"Karlín, None, None","city":"Karlín","state":"None","country":"None","address":"","tags":["Karlín","Prague","vinyasa","yin","power yoga","cozy","community-focused","Karlín"],"summary":"A cozy yoga studio located in Karlín, offering a diverse range of classes with experienced instructors.","gm_reviews_count":107,"gm_totalScore":4.8},{"id":"Klungkung_Regency_Island_Yoga_Lembongan","title":"Island Yoga Lembongan","location":"Klungkung_Regency, Bali, None","city":"Klungkung_Regency","state":"Bali","country":"None","address":"","tags":["Lembongan","Bali","hammock yoga","sound healing","vinyasa","peaceful","welcoming","Klungkung Regency"],"summary":"Island Yoga is a tranquil yoga studio located in Lembongan, Bali.","gm_reviews_count":110,"gm_totalScore":5},{"id":"Lachine_Vibrations_Om_yoga_Massage_Bonheur","title":"Vibrations Om yoga Massage Bonheur","location":"Lachine, Quebec, None","city":"Lachine","state":"Quebec","country":"None","address":"","tags":["Lachine","Quebec","Hatha yoga","Restorative yoga","relaxing atmosphere","professional staff","Lachine"],"summary":"A beautiful yoga and massage studio located in Lachine, Quebec.","gm_reviews_count":71,"gm_totalScore":4.9},{"id":"Metropolitan_City_of_Florence_The22_Yoga_Fitness_Lifestyle_Studio_Florence","title":"The22 Yoga  Fitness Lifestyle Studio Florence","location":"Florence, Metropolitan City of Florence, None","city":"Florence","state":"Metropolitan City of Florence","country":"None","address":"","tags":["Florence","city center","yoga","meditation","Ayurvedic","wellness","atmosphere","Florence"],"summary":"A holistic yoga and fitness lifestyle studio located in Florence, Italy.","gm_reviews_count":16,"gm_totalScore":5},{"id":"Mumbai_Pranava_The_Yoga_Vibes_Academy","title":"Pranava The Yoga Vibes Academy","location":"Mumbai, Maharashtra, None","city":"Mumbai","state":"Maharashtra","country":"None","address":"","tags":["Mumbai","Sion","prenatal yoga","postnatal yoga","hatha yoga","supportive atmosphere","personalized instruction","Mumbai"],"summary":"Pranava The Yoga Vibes Academy in Mumbai is a nurturing space for yoga with personalized instruction from excellent teachers.","gm_reviews_count":86,"gm_totalScore":4.9},{"id":"Mumbai_Yoga_Classes_Ladies","title":"Yoga Classes Ladies","location":"Mumbai, Maharashtra, None","city":"Mumbai","state":"Maharashtra","country":"None","address":"","tags":["Mumbai","Maharashtra","hatha","prenatal","asanas","atmosphere","Mumbai"],"summary":"Yoga Classes Ladies in Mumbai offers a welcoming and experienced environment for women's yoga.","gm_reviews_count":34,"gm_totalScore":4.9},{"id":"Mumbai_Yoga_For_A_Better_Living","title":"Yoga For A Better Living","location":"Mumbai, Maharashtra, None","city":"Mumbai","state":"Maharashtra","country":"None","address":"","tags":["Mumbai","atmosphere","Mumbai"],"summary":"Yoga For A Better Living is a yoga studio located in Mumbai.","gm_reviews_count":7,"gm_totalScore":5},{"id":"Mumbai_Yoga_With_Anindita","title":"Yoga With Anindita","location":"Mumbai, Maharashtra, None","city":"Mumbai","state":"Maharashtra","country":"None","address":"","tags":["Mumbai","Santa Cruz","hatha","pilates","aerial","supportive atmosphere","experienced instructor","Mumbai"],"summary":"Yoga with Anindita in Mumbai offers a blend of challenging and relaxing yoga sessions for all ages.","gm_reviews_count":96,"gm_totalScore":4.9},{"id":"My_Yoga_Wan_Chai","title":"My Yoga Wan Chai","location":"Wan_Chai, None, None","city":"Wan_Chai","state":"None","country":"None","address":"","tags":["Wan Chai","near subway","aerial yoga","multi-style","comfortable","welcoming","Wan Chai"],"summary":"A fantastic yoga studio located in Wan Chai, known for its welcoming atmosphere and professional instructors.","gm_reviews_count":43,"gm_totalScore":4.9},{"id":"Navi_Mumbai_Kosha_Yoga","title":"Kosha  Yoga","location":"Navi_Mumbai, Maharashtra, None","city":"Navi_Mumbai","state":"Maharashtra","country":"None","address":"","tags":["Navi Mumbai","Maharashtra","welcoming atmosphere","holistic","Navi Mumbai"],"summary":"Kosha - Yoga, located in Navi Mumbai, offers a nurturing environment for yoga practitioners.","gm_reviews_count":8,"gm_totalScore":4.9},{"id":"New_Town_Kundalini_Yoga_Center","title":"Kundalini Yoga Center","location":"New_Town, None, None","city":"New_Town","state":"None","country":"None","address":"","tags":["New Town","Kundalini","atmosphere","community","New Town"],"summary":"Kundalini Yoga Center in New Town is praised for its quality instruction and welcoming atmosphere.","gm_reviews_count":15,"gm_totalScore":5},{"id":"SaintLaurent_Yogafulness_Life","title":"Yogafulness Life","location":"Saint-Laurent, Quebec, None","city":"Saint-Laurent","state":"Quebec","country":"None","address":"","tags":["Saint-Laurent","Quebec","prenatal","Pilates","Hatha","intimate","cozy","Saint-Laurent"],"summary":"Yogafulness Life, located in Saint-Laurent, Quebec, is known for its personalized approach to yoga and Pilates classes.","gm_reviews_count":147,"gm_totalScore":5},{"id":"Santa_Cruz_de_Tenerife_Espacio_Prana","title":"Espacio Prana","location":"Santa_Cruz_de_Tenerife, Santa Cruz de Tenerife, None","city":"Santa_Cruz_de_Tenerife","state":"Santa Cruz de Tenerife","country":"None","address":"","tags":["Santa Cruz de Tenerife","Hatha","Vinyasa","Restorative","welcoming","community-focused","Santa Cruz de Tenerife"],"summary":"A welcoming yoga studio in Santa Cruz de Tenerife.","gm_reviews_count":5,"gm_totalScore":5},{"id":"Santa_Cruz_de_Tenerife_Soul_Yogashala","title":"Soul Yogashala","location":"Santa_Cruz_de_Tenerife, Santa Cruz de Tenerife, None","city":"Santa_Cruz_de_Tenerife","state":"Santa Cruz de Tenerife","country":"None","address":"","tags":["Santa Cruz de Tenerife","Yin","Vinyasa","welcoming","spacious","Santa Cruz de Tenerife"],"summary":"Soul Yogashala is a welcoming yoga studio located in Santa Cruz de Tenerife.","gm_reviews_count":18,"gm_totalScore":5},{"id":"Sheung_Wan_Iyengar_Yoga_Centre_Of_Hong_Kong","title":"Iyengar Yoga Centre Of Hong Kong","location":"Sheung_Wan, None, None","city":"Sheung_Wan","state":"None","country":"None","address":"","tags":["Sheung Wan","Hong Kong","Iyengar Yoga","community","welcoming atmosphere","Sheung Wan"],"summary":"Iyengar Yoga Centre of Hong Kong is located in Sheung Wan.","gm_reviews_count":14,"gm_totalScore":5},{"id":"Udaipur_Sarvam_Yoga_Fitness_Studio","title":"Sarvam Yoga  Fitness Studio","location":"Udaipur, Rajasthan, None","city":"Udaipur","state":"Rajasthan","country":"None","address":"","tags":["Udaipur","welcoming","Udaipur"],"summary":"A renowned yoga studio located in Udaipur, Rajasthan, known for its experienced teachers.","gm_reviews_count":49,"gm_totalScore":5},{"id":"Udaipur_Yogic_Fitness","title":"Yogic Fitness","location":"Udaipur, Rajasthan, None","city":"Udaipur","state":"Rajasthan","country":"None","address":"","tags":["Udaipur","Rajasthan","hatha yoga","power yoga","meditation","calming atmosphere","supportive environment","Udaipur"],"summary":"Yogic Fitness in Udaipur offers enriching yoga experiences led by the knowledgeable instructor Bhavesh.","gm_reviews_count":144,"gm_totalScore":4.9},{"id":"Yoga_Along_Sheung_Wan","title":"Yoga Along  Sheung Wan","location":"Sheung_Wan, None, None","city":"Sheung_Wan","state":"None","country":"None","address":"","tags":["Sheung Wan","Hatha","welcoming","convenient","Sheung Wan"],"summary":"Yoga Along is a welcoming yoga studio located in Sheung Wan.","gm_reviews_count":12,"gm_totalScore":4.7}]